{
"type": "FeatureCollection",
"name": "GeoJson",
"crs": { "type": "name", "properties": { "name": "urn:ogc:def:crs:OGC:1.3:CRS84" } },
"features": [
{ "type": "Feature", "properties": { "NAME": "West Virginia", "2": null, "3": null, "4": 5, "5": 6, "6": 6, "7": 6, "8": 9, "9": 11, "10": 11, "11": 11, "12": 11, "x": -80.614, "y": 38.643 }, "geometry": { "type": "Point", "coordinates": [ -80.6137068997092, 38.642567026153976 ] } },
{ "type": "Feature", "properties": { "NAME": "Florida", "2": 9, "3": 42, "4": 78, "5": 95, "6": 132, "7": 206, "8": 322, "9": 571, "10": 707, "11": 708, "12": 785, "x": -82.466, "y": 28.477 }, "geometry": { "type": "Point", "coordinates": [ -82.466418388883767, 28.477058415081203 ] } },
{ "type": "Feature", "properties": { "NAME": "Illinois", "2": 3, "3": 5, "4": 10, "5": 13, "6": 16, "7": 23, "8": 33, "9": 51, "10": 75, "11": 81, "12": 85, "x": -89.149, "y": 40.124 }, "geometry": { "type": "Point", "coordinates": [ -89.148640386728246, 40.124198721633846 ] } },
{ "type": "Feature", "properties": { "NAME": "Minnesota", "2": 1, "3": 3, "4": 12, "5": 17, "6": 17, "7": 21, "8": 29, "9": 39, "10": 47, "11": 53, "12": 55, "x": -94.198, "y": 46.349 }, "geometry": { "type": "Point", "coordinates": [ -94.198348719913639, 46.349289183887969 ] } },
{ "type": "Feature", "properties": { "NAME": "Maryland", "2": null, "3": 3, "4": 6, "5": 17, "6": 21, "7": 31, "8": 54, "9": 89, "10": 102, "11": 107, "12": 125, "x": -76.687, "y": 38.946 }, "geometry": { "type": "Point", "coordinates": [ -76.687177340980199, 38.946493959175555 ] } },
{ "type": "Feature", "properties": { "NAME": "Rhode Island", "2": null, "3": null, "4": null, "5": null, "6": 4, "7": 16, "8": 18, "9": 29, "10": 32, "11": 33, "12": 35, "x": -71.525, "y": 41.595 }, "geometry": { "type": "Point", "coordinates": [ -71.524723548751226, 41.594638897784108 ] } },
{ "type": "Feature", "properties": { "NAME": "Idaho", "2": null, "3": null, "4": null, "5": null, "6": null, "7": null, "8": null, "9": 2, "10": 3, "11": 4, "12": 4, "x": -114.659, "y": 44.389 }, "geometry": { "type": "Point", "coordinates": [ -114.659414931030867, 44.389054943578536 ] } },
{ "type": "Feature", "properties": { "NAME": "New Hampshire", "2": null, "3": null, "4": 2, "5": 3, "6": 4, "7": 4, "8": 8, "9": 8, "10": 10, "11": 11, "12": 12, "x": -71.571, "y": 43.68 }, "geometry": { "type": "Point", "coordinates": [ -71.571242793284497, 43.680236921879136 ] } },
{ "type": "Feature", "properties": { "NAME": "North Carolina", "2": null, "3": 2, "4": 8, "5": 11, "6": 11, "7": 17, "8": 30, "9": 52, "10": 66, "11": 73, "12": 83, "x": -79.131, "y": 35.526 }, "geometry": { "type": "Point", "coordinates": [ -79.13088404008893, 35.52603675739833 ] } },
{ "type": "Feature", "properties": { "NAME": "Vermont", "2": null, "3": null, "4": null, "5": 1, "6": 1, "7": 2, "8": 6, "9": 7, "10": 7, "11": 10, "12": 10, "x": -72.663, "y": 44.075 }, "geometry": { "type": "Point", "coordinates": [ -72.662630812305011, 44.07524794699296 ] } },
{ "type": "Feature", "properties": { "NAME": "Connecticut", "2": null, "3": null, "4": 1, "5": 1, "6": 1, "7": 27, "8": 39, "9": 58, "10": 58, "11": 58, "12": 58, "x": -72.738, "y": 41.575 }, "geometry": { "type": "Point", "coordinates": [ -72.738257674179295, 41.575164150071799 ] } },
{ "type": "Feature", "properties": { "NAME": "Delaware", "2": null, "3": 1, "4": 3, "5": 3, "6": 4, "7": 5, "8": 10, "9": 11, "10": 15, "11": 16, "12": 17, "x": -75.452, "y": 38.995 }, "geometry": { "type": "Point", "coordinates": [ -75.452492578378212, 38.994974845423933 ] } },
{ "type": "Feature", "properties": { "NAME": "New Mexico", "2": null, "3": null, "4": null, "5": 1, "6": 3, "7": 3, "8": 3, "9": 4, "10": 7, "11": 9, "12": 9, "x": -106.108, "y": 34.421 }, "geometry": { "type": "Point", "coordinates": [ -106.108443861830693, 34.4213012848139 ] } },
{ "type": "Feature", "properties": { "NAME": "California", "2": 2, "3": 10, "4": 29, "5": 40, "6": 48, "7": 69, "8": 87, "9": 210, "10": 277, "11": 325, "12": 375, "x": -119.664, "y": 37.215 }, "geometry": { "type": "Point", "coordinates": [ -119.663869752476344, 37.215331504272363 ] } },
{ "type": "Feature", "properties": { "NAME": "New Jersey", "2": 1, "3": 1, "4": 5, "5": 9, "6": 17, "7": 45, "8": 50, "9": 91, "10": 133, "11": 157, "12": 164, "x": -74.656, "y": 40.11 }, "geometry": { "type": "Point", "coordinates": [ -74.655612463530218, 40.110179769133318 ] } },
{ "type": "Feature", "properties": { "NAME": "Wisconsin", "2": null, "3": null, "4": null, "5": null, "6": 2, "7": 2, "8": 17, "9": 24, "10": 40, "11": 45, "12": 48, "x": -89.733, "y": 44.64 }, "geometry": { "type": "Point", "coordinates": [ -89.732968024083277, 44.639942960668577 ] } },
{ "type": "Feature", "properties": { "NAME": "Oregon", "2": null, "3": 5, "4": 6, "5": 6, "6": 6, "7": 7, "8": 14, "9": 19, "10": 27, "11": 34, "12": 39, "x": -120.605, "y": 43.94 }, "geometry": { "type": "Point", "coordinates": [ -120.605256220369554, 43.940451387357669 ] } },
{ "type": "Feature", "properties": { "NAME": "Nebraska", "2": null, "3": 2, "4": 2, "5": 2, "6": 2, "7": 2, "8": 4, "9": 8, "10": 11, "11": 12, "12": 13, "x": -99.811, "y": 41.527 }, "geometry": { "type": "Point", "coordinates": [ -99.81086234957445, 41.527147932702583 ] } },
{ "type": "Feature", "properties": { "NAME": "Pennsylvania", "2": null, "3": null, "4": null, "5": null, "6": null, "7": null, "8": null, "9": null, "10": null, "11": null, "12": null, "x": -77.839, "y": 40.897 }, "geometry": { "type": "Point", "coordinates": [ -77.838937995605477, 40.896700502251534 ] } },
{ "type": "Feature", "properties": { "NAME": "Washington", "2": null, "3": 1, "4": 2, "5": 2, "6": 4, "7": 9, "8": 16, "9": 28, "10": 34, "11": 55, "12": 58, "x": -120.593, "y": 47.412 }, "geometry": { "type": "Point", "coordinates": [ -120.592818956109554, 47.41161850353452 ] } },
{ "type": "Feature", "properties": { "NAME": "Louisiana", "2": null, "3": 1, "4": 4, "5": 4, "6": 4, "7": 6, "8": 9, "9": 26, "10": 32, "11": 32, "12": 35, "x": -91.814, "y": 30.909 }, "geometry": { "type": "Point", "coordinates": [ -91.814232681001783, 30.909071344936301 ] } },
{ "type": "Feature", "properties": { "NAME": "Georgia", "2": 1, "3": 2, "4": 11, "5": 13, "6": 17, "7": 29, "8": 42, "9": 75, "10": 86, "11": 101, "12": 104, "x": -83.427, "y": 32.639 }, "geometry": { "type": "Point", "coordinates": [ -83.427246263090851, 32.638641836979723 ] } },
{ "type": "Feature", "properties": { "NAME": "Alabama", "2": null, "3": 1, "4": 2, "5": 2, "6": 2, "7": 2, "8": 11, "9": 24, "10": 27, "11": 30, "12": 30, "x": -86.845, "y": 32.757 }, "geometry": { "type": "Point", "coordinates": [ -86.844520984902459, 32.756879932397702 ] } },
{ "type": "Feature", "properties": { "NAME": "Utah", "2": null, "3": null, "4": 2, "5": 2, "6": 2, "7": 3, "8": 6, "9": 12, "10": 15, "11": 15, "12": 19, "x": -111.678, "y": 39.324 }, "geometry": { "type": "Point", "coordinates": [ -111.6782499535977, 39.323768711886409 ] } },
{ "type": "Feature", "properties": { "NAME": "Ohio", "2": null, "3": 5, "4": 9, "5": 12, "6": 14, "7": 21, "8": 26, "9": 36, "10": 53, "11": 71, "12": 75, "x": -82.709, "y": 40.415 }, "geometry": { "type": "Point", "coordinates": [ -82.709377239123086, 40.415487035729726 ] } },
{ "type": "Feature", "properties": { "NAME": "Texas", "2": 8, "3": 15, "4": 27, "5": 30, "6": 40, "7": 53, "8": 89, "9": 161, "10": 218, "11": 237, "12": 268, "x": -99.317, "y": 31.447 }, "geometry": { "type": "Point", "coordinates": [ -99.31711694240623, 31.447201788145971 ] } },
{ "type": "Feature", "properties": { "NAME": "Colorado", "2": null, "3": 2, "4": 2, "5": 2, "6": 4, "7": 10, "8": 19, "9": 27, "10": 36, "11": 46, "12": 50, "x": -105.548, "y": 38.999 }, "geometry": { "type": "Point", "coordinates": [ -105.54782080150963, 38.998532031209358 ] } },
{ "type": "Feature", "properties": { "NAME": "South Carolina", "2": null, "3": null, "4": null, "5": 1, "6": 1, "7": 6, "8": 28, "9": 31, "10": 31, "11": 53, "12": 54, "x": -80.865, "y": 33.878 }, "geometry": { "type": "Point", "coordinates": [ -80.864588087759103, 33.877749405611375 ] } },
{ "type": "Feature", "properties": { "NAME": "Oklahoma", "2": null, "3": null, "4": 3, "5": 4, "6": 5, "7": 12, "8": 13, "9": 20, "10": 27, "11": 29, "12": 29, "x": -97.508, "y": 35.583 }, "geometry": { "type": "Point", "coordinates": [ -97.508242765265152, 35.583466439803935 ] } },
{ "type": "Feature", "properties": { "NAME": "Tennessee", "2": null, "3": 1, "4": 1, "5": 2, "6": 4, "7": 10, "8": 22, "9": 38, "10": 52, "11": 55, "12": 58, "x": -86.343, "y": 35.843 }, "geometry": { "type": "Point", "coordinates": [ -86.343412305427435, 35.842980139111638 ] } },
{ "type": "Feature", "properties": { "NAME": "Wyoming", "2": null, "3": null, "4": null, "5": null, "6": null, "7": null, "8": null, "9": null, "10": 2, "11": 2, "12": 2, "x": -107.551, "y": 43.0 }, "geometry": { "type": "Point", "coordinates": [ -107.551395881916832, 42.999538281945327 ] } },
{ "type": "Feature", "properties": { "NAME": "Hawaii", "2": 3, "3": 4, "4": 5, "5": 7, "6": 10, "7": 10, "8": 10, "9": 11, "10": 14, "11": 14, "12": 14, "x": -158.11, "y": 20.995 }, "geometry": { "type": "Point", "coordinates": [ -158.109973806952297, 20.995111199068841 ] } },
{ "type": "Feature", "properties": { "NAME": "North Dakota", "2": null, "3": null, "4": null, "5": null, "6": null, "7": null, "8": 1, "9": 1, "10": 2, "11": 2, "12": 2, "x": -100.469, "y": 47.446 }, "geometry": { "type": "Point", "coordinates": [ -100.469318207128438, 47.446314063606295 ] } },
{ "type": "Feature", "properties": { "NAME": "Kentucky", "2": null, "3": null, "4": 3, "5": 5, "6": 6, "7": 7, "8": 10, "9": 20, "10": 24, "11": 24, "12": 24, "x": -85.291, "y": 37.527 }, "geometry": { "type": "Point", "coordinates": [ -85.290558439731171, 37.526614847430928 ] } },
{ "type": "Feature", "properties": { "NAME": "United States Virgin Islands", "2": null, "3": null, "4": null, "5": null, "6": null, "7": null, "8": null, "9": null, "10": null, "11": null, "12": null, "x": -64.839, "y": 18.06 }, "geometry": { "type": "Point", "coordinates": [ -64.839036954470146, 18.059817909030222 ] } },
{ "type": "Feature", "properties": { "NAME": "Commonwealth of the Northern Mariana Islands", "2": null, "3": null, "4": null, "5": null, "6": null, "7": null, "8": null, "9": null, "10": null, "11": null, "12": null, "x": 145.596, "y": 16.817 }, "geometry": { "type": "Point", "coordinates": [ 145.595722436184104, 16.817085397244 ] } },
{ "type": "Feature", "properties": { "NAME": "Guam", "2": null, "3": null, "4": null, "5": null, "6": null, "7": null, "8": null, "9": null, "10": null, "11": null, "12": null, "x": 144.769, "y": 13.443 }, "geometry": { "type": "Point", "coordinates": [ 144.769451697331277, 13.44275954785126 ] } },
{ "type": "Feature", "properties": { "NAME": "Maine", "2": null, "3": null, "4": 1, "5": 2, "6": 6, "7": 6, "8": 9, "9": 11, "10": 11, "11": 11, "12": 13, "x": -69.203, "y": 45.274 }, "geometry": { "type": "Point", "coordinates": [ -69.20275929512178, 45.27432188613956 ] } },
{ "type": "Feature", "properties": { "NAME": "New York", "2": null, "3": 23, "4": 55, "5": 89, "6": 164, "7": 285, "8": 491, "9": 661, "10": 837, "11": 870, "12": 942, "x": -75.597, "y": 42.921 }, "geometry": { "type": "Point", "coordinates": [ -75.596543220306657, 42.921233547661132 ] } },
{ "type": "Feature", "properties": { "NAME": "Nevada", "2": null, "3": null, "4": 2, "5": 2, "6": 6, "7": 7, "8": 11, "9": 14, "10": 14, "11": 15, "12": 18, "x": -116.655, "y": 39.356 }, "geometry": { "type": "Point", "coordinates": [ -116.655248435896681, 39.356185386933987 ] } },
{ "type": "Feature", "properties": { "NAME": "Alaska", "2": null, "3": null, "4": null, "5": null, "6": null, "7": null, "8": null, "9": null, "10": null, "11": null, "12": null, "x": -151.601, "y": 63.737 }, "geometry": { "type": "Point", "coordinates": [ -151.600605274696846, 63.736639960071798 ] } },
{ "type": "Feature", "properties": { "NAME": "American Samoa", "2": null, "3": null, "4": null, "5": null, "6": null, "7": null, "8": null, "9": null, "10": 7, "11": null, "12": null, "x": -170.08, "y": -13.966 }, "geometry": { "type": "Point", "coordinates": [ -170.079591783776806, -13.966019236292309 ] } },
{ "type": "Feature", "properties": { "NAME": "Michigan", "2": null, "3": 1, "4": 2, "5": 3, "6": 7, "7": 10, "8": 17, "9": 45, "10": 60, "11": 62, "12": 63, "x": -85.731, "y": 44.875 }, "geometry": { "type": "Point", "coordinates": [ -85.730952991143184, 44.87477377147065 ] } },
{ "type": "Feature", "properties": { "NAME": "Arkansas", "2": 1, "3": 1, "4": 1, "5": 2, "6": 5, "7": 5, "8": 5, "9": 9, "10": 10, "11": 13, "12": 13, "x": -92.439, "y": 34.9 }, "geometry": { "type": "Point", "coordinates": [ -92.43924961348506, 34.89978279570046 ] } },
{ "type": "Feature", "properties": { "NAME": "Mississippi", "2": null, "3": null, "4": 2, "5": 3, "6": 3, "7": 5, "8": 14, "9": 20, "10": 23, "11": 23, "12": 23, "x": -89.653, "y": 32.713 }, "geometry": { "type": "Point", "coordinates": [ -89.653359422646403, 32.712892123851184 ] } },
{ "type": "Feature", "properties": { "NAME": "Missouri", "2": null, "3": null, "4": 2, "5": 3, "6": 4, "7": 6, "8": 10, "9": 26, "10": 27, "11": 34, "12": 36, "x": -92.477, "y": 38.368 }, "geometry": { "type": "Point", "coordinates": [ -92.477422218077166, 38.36763880708429 ] } },
{ "type": "Feature", "properties": { "NAME": "Montana", "2": null, "3": 1, "4": 1, "5": 1, "6": 1, "7": 1, "8": 1, "9": 7, "10": 7, "11": 7, "12": 7, "x": -109.645, "y": 47.033 }, "geometry": { "type": "Point", "coordinates": [ -109.645151045697418, 47.033423914753222 ] } },
{ "type": "Feature", "properties": { "NAME": "Kansas", "2": null, "3": null, "4": 1, "5": 1, "6": 2, "7": 5, "8": 8, "9": 13, "10": 15, "11": 17, "12": 17, "x": -98.38, "y": 38.485 }, "geometry": { "type": "Point", "coordinates": [ -98.38015544941149, 38.484727052846935 ] } },
{ "type": "Feature", "properties": { "NAME": "Indiana", "2": null, "3": 2, "4": 6, "5": 6, "6": 7, "7": 10, "8": 20, "9": 32, "10": 38, "11": 46, "12": 47, "x": -86.282, "y": 39.92 }, "geometry": { "type": "Point", "coordinates": [ -86.281838517229843, 39.919869710484122 ] } },
{ "type": "Feature", "properties": { "NAME": "Puerto Rico", "2": 1, "3": 1, "4": 2, "5": 2, "6": 3, "7": 7, "8": 22, "9": 59, "10": 75, "11": 103, "12": 124, "x": -66.415, "y": 18.216 }, "geometry": { "type": "Point", "coordinates": [ -66.41466678402638, 18.215698337311316 ] } },
{ "type": "Feature", "properties": { "NAME": "South Dakota", "2": null, "3": null, "4": null, "5": null, "6": null, "7": null, "8": null, "9": 1, "10": 2, "11": 2, "12": 2, "x": -100.23, "y": 44.436 }, "geometry": { "type": "Point", "coordinates": [ -100.230457624160707, 44.436132995709606 ] } },
{ "type": "Feature", "properties": { "NAME": "Massachusetts", "2": 2, "3": 3, "4": 7, "5": 10, "6": 20, "7": 39, "8": 54, "9": 67, "10": 93, "11": 98, "12": 106, "x": -71.504, "y": 42.16 }, "geometry": { "type": "Point", "coordinates": [ -71.503972261186121, 42.160092938350971 ] } },
{ "type": "Feature", "properties": { "NAME": "Virginia", "2": 1, "3": 5, "4": 8, "5": 13, "6": 20, "7": 33, "8": 57, "9": 78, "10": 86, "11": 92, "12": 95, "x": -78.666, "y": 37.511 }, "geometry": { "type": "Point", "coordinates": [ -78.666356399980486, 37.510871103047975 ] } },
{ "type": "Feature", "properties": { "NAME": "District of Columbia", "2": 3, "3": 3, "4": 3, "5": 3, "6": 6, "7": 7, "8": 10, "9": 11, "10": 25, "11": 25, "12": 27, "x": -77.016, "y": 38.905 }, "geometry": { "type": "Point", "coordinates": [ -77.016302670176174, 38.904773714587094 ] } },
{ "type": "Feature", "properties": { "NAME": "Iowa", "2": null, "3": 3, "4": 4, "5": 5, "6": 7, "7": 9, "8": 9, "9": 15, "10": 16, "11": 17, "12": 19, "x": -93.5, "y": 42.075 }, "geometry": { "type": "Point", "coordinates": [ -93.500090066591582, 42.074648340655465 ] } },
{ "type": "Feature", "properties": { "NAME": "Arizona", "2": null, "3": null, "4": 1, "5": 1, "6": 2, "7": 6, "8": 10, "9": 22, "10": 36, "11": 42, "12": 51, "x": -111.664, "y": 34.293 }, "geometry": { "type": "Point", "coordinates": [ -111.664446293562563, 34.293143622119054 ] } }
]
}
